{"address": "109 Lake Nancy Dr, West Palm Beach, FL 33411", "country": "USA", "listingStatus": "FOR_SALE", "zpid": "46537711", "price": 235000, "livingArea": 1189, "bedrooms": 2, "bathrooms": 2, "longitude": -80.1668, "latitude": 26.698914, "Distance to Trader Joe's (2877 South State Rd 7 Wellington, FL 33414)": "4.90 miles"}{"address": "1825 Windsor Ave, West Palm Beach, FL 33407", "country": "USA", "listingStatus": "FOR_SALE", "zpid": "46930471", "price": 335000, "livingArea": 1675, "bedrooms": 4, "bathrooms": 2, "longitude": -80.06364, "latitude": 26.730171}{"address": "5759 Dewberry Way, West Palm Beach, FL 33415", "country": "USA", "listingStatus": "FOR_SALE", "zpid": "46545059", "price": 389900, "livingArea": 1253, "bedrooms": 3, "bathrooms": 2, "longitude": -80.13378, "latitude": 26.661503, "Distance to Trader Joe's (2877 South State Rd 7 Wellington, FL 33414)": "4.75 miles"}{"address": "7716 Bougainvillea Ct, West Palm Beach, FL 33412", "country": "USA", "listingStatus": "FOR_SALE", "zpid": "46917715", "price": 294900, "livingArea": 1546, "bedrooms": 2, "bathrooms": 2, "longitude": -80.19885, "latitude": 26.792295, "Distance to Trader Joe's (2877 South State Rd 7 Wellington, FL 33414)": "4.75 miles"}{"address": "7698 Hummingbird Ct, West Palm Beach, FL 33412", "country": "USA", "listingStatus": "FOR_SALE", "zpid": "46917706", "price": 310000, "livingArea": 1548, "bedrooms": 2, "bathrooms": 2, "longitude": -80.19919, "latitude": 26.79194, "Distance to Trader Joe's (2877 South State Rd 7 Wellington, FL 33414)": "4.75 miles"}{"address": "1090 17th St, West Palm Beach, FL 33407", "country": "USA", "listingStatus": "FOR_SALE", "zpid": "295525745", "price": 350000, "livingArea": 1491, "bedrooms": 3, "bathrooms": 2, "longitude": -80.062996, "latitude": 26.72874, "Distance to Trader Joe's (2877 South State Rd 7 Wellington, FL 33414)": "4.75 miles"}{"address": "1141 Summit Place Cir APT B, West Palm Beach, FL 33415", "country": "USA", "listingStatus": "FOR_SALE", "zpid": "46545139", "price": 360000, "livingArea": 1332, "bedrooms": 3, "bathrooms": 2, "longitude": -80.127884, "latitude": 26.65938, "Distance to Trader Joe's (2877 South State Rd 7 Wellington, FL 33414)": "4.75 miles"}{"address": "9434 Bridgeport Dr, West Palm Beach, FL 33411", "country": "USA", "listingStatus": "FOR_SALE", "zpid": "54151053", "price": 369888, "livingArea": 1368, "bedrooms": 3, "bathrooms": 2, "longitude": -80.19243, "latitude": 26.711374, "Distance to Trader Joe's (2877 South State Rd 7 Wellington, FL 33414)": "4.75 miles"}{"address": "928 39th St, West Palm Beach, FL 33407", "country": "USA", "listingStatus": "FOR_SALE", "zpid": "46927790", "price": 395000, "livingArea": 1186, "bedrooms": 3, "bathrooms": 2, "longitude": -80.063736, "latitude": 26.748123, "Distance to Trader Joe's (2877 South State Rd 7 Wellington, FL 33414)": "4.75 miles"}{"address": "179 Lake Susan Ln, West Palm Beach, FL 33411", "country": "USA", "listingStatus": "FOR_SALE", "zpid": "46537642", "price": 285000, "livingArea": 1009, "bedrooms": 2, "bathrooms": 2, "longitude": -80.16824, "latitude": 26.695345, "Distance to Trader Joe's (2877 South State Rd 7 Wellington, FL 33414)": "4.64 miles"}{"address": "203 Lake Meryl Dr, West Palm Beach, FL 33411", "country": "USA", "listingStatus": "FOR_SALE", "zpid": "46537190", "price": 185000, "livingArea": 841, "bedrooms": 2, "bathrooms": 2, "longitude": -80.16463, "latitude": 26.697176, "Distance to Trader Joe's (2877 South State Rd 7 Wellington, FL 33414)": "4.86 miles"}{"address": "1022 22nd St, West Palm Beach, FL 33407", "country": "USA", "listingStatus": "FOR_SALE", "zpid": "46930659", "price": 320000, "livingArea": 1166, "bedrooms": 3, "bathrooms": 2, "longitude": -80.06187, "latitude": 26.734037, "Distance to Trader Joe's (2877 South State Rd 7 Wellington, FL 33414)": "4.86 miles"}{"address": "2640 Gately Dr W APT 304, West Palm Beach, FL 33415", "country": "USA", "listingStatus": "FOR_SALE", "zpid": "46552465", "price": 244999, "livingArea": 1116, "bedrooms": 2, "bathrooms": 2, "longitude": -80.13555, "latitude": 26.63987, "Distance to Trader Joe's (2877 South State Rd 7 Wellington, FL 33414)": "4.34 miles"}{"address": "5857 Cassandra Ct, West Palm Beach, FL 33415", "country": "USA", "listingStatus": "FOR_SALE", "zpid": "46544881", "price": 399000, "livingArea": 1596, "bedrooms": 4, "bathrooms": 3, "longitude": -80.1356, "latitude": 26.662613, "Distance to Trader Joe's (2877 South State Rd 7 Wellington, FL 33414)": "4.68 miles"}{"address": "3405 Pinewood Ave, West Palm Beach, FL 33407", "country": "USA", "listingStatus": "FOR_SALE", "zpid": "46927676", "price": 298000, "livingArea": 898, "bedrooms": 3, "bathrooms": 2, "longitude": -80.05901, "latitude": 26.743591, "Distance to Trader Joe's (2877 South State Rd 7 Wellington, FL 33414)": "4.68 miles"}{"address": "1614 45th St, West Palm Beach, FL 33407", "country": "USA", "listingStatus": "FOR_SALE", "zpid": "46924267", "price": 380000, "livingArea": 1868, "bedrooms": 3, "bathrooms": 2, "longitude": -80.07592, "latitude": 26.752954, "Distance to Trader Joe's (2877 South State Rd 7 Wellington, FL 33414)": "4.68 miles"}{"address": "7057 Gila Ln, West Palm Beach, FL 33411", "country": "USA", "listingStatus": "FOR_SALE", "zpid": "46921480", "price": 399900, "livingArea": 1680, "bedrooms": 2, "bathrooms": 2, "longitude": -80.1525, "latitude": 26.720057, "Distance to Trader Joe's (2877 South State Rd 7 Wellington, FL 33414)": "4.68 miles"}{"address": "5954 Bahama Ct, West Palm Beach, FL 33407", "country": "USA", "listingStatus": "FOR_SALE", "zpid": "46519761", "price": 297000, "livingArea": 1225, "bedrooms": 3, "bathrooms": 2, "longitude": -80.11153, "latitude": 26.764647, "Distance to Trader Joe's (2877 South State Rd 7 Wellington, FL 33414)": "4.68 miles"}{"address": "1654 43rd St, West Palm Beach, FL 33407", "country": "USA", "listingStatus": "FOR_SALE", "zpid": "46924150", "price": 375000, "livingArea": 1352, "bedrooms": 3, "bathrooms": 2, "longitude": -80.07719, "latitude": 26.751423, "Distance to Trader Joe's (2877 South State Rd 7 Wellington, FL 33414)": "4.68 miles"}{"address": "140 Lake Barbara Dr, West Palm Beach, FL 33411", "country": "USA", "listingStatus": "FOR_SALE", "zpid": "46536562", "price": 195000, "livingArea": 1000, "bedrooms": 2, "bathrooms": 2, "longitude": -80.1656, "latitude": 26.703608, "Distance to Trader Joe's (2877 South State Rd 7 Wellington, FL 33414)": "4.68 miles"}{"address": "2522 Emory Dr E APT I, West Palm Beach, FL 33415", "country": "USA", "listingStatus": "FOR_SALE", "zpid": "46551112", "price": 155000, "livingArea": 895, "bedrooms": 2, "bathrooms": 2, "longitude": -80.13005, "latitude": 26.640331, "Distance to Trader Joe's (2877 South State Rd 7 Wellington, FL 33414)": "4.68 miles"}{"address": "2910 Ashley Dr E APT G, West Palm Beach, FL 33415", "country": "USA", "listingStatus": "FOR_SALE", "zpid": "46548392", "price": 149000, "livingArea": 895, "bedrooms": 2, "bathrooms": 2, "longitude": -80.117676, "latitude": 26.634113, "Distance to Trader Joe's (2877 South State Rd 7 Wellington, FL 33414)": "4.68 miles"}{"address": "5354 Marcia Pl, West Palm Beach, FL 33407", "country": "USA", "listingStatus": "FOR_SALE", "zpid": "46519937", "price": 369000, "livingArea": 1134, "bedrooms": 3, "bathrooms": 2, "longitude": -80.12207, "latitude": 26.761545, "Distance to Trader Joe's (2877 South State Rd 7 Wellington, FL 33414)": "4.68 miles"}{"address": "443 Golden River Dr, West Palm Beach, FL 33411", "country": "USA", "listingStatus": "FOR_SALE", "zpid": "46537054", "price": 209000, "livingArea": 1191, "bedrooms": 2, "bathrooms": 2, "longitude": -80.15989, "latitude": 26.700493, "Distance to Trader Joe's (2877 South State Rd 7 Wellington, FL 33414)": "4.68 miles"}{"address": "185 Lake Susan Ln, West Palm Beach, FL 33411", "country": "USA", "listingStatus": "FOR_SALE", "zpid": "46537647", "price": 254900, "livingArea": 1009, "bedrooms": 2, "bathrooms": 2, "longitude": -80.16824, "latitude": 26.695345, "Distance to Trader Joe's (2877 South State Rd 7 Wellington, FL 33414)": "4.64 miles"}{"address": "7717 Azalea Ct, West Palm Beach, FL 33412", "country": "USA", "listingStatus": "FOR_SALE", "zpid": "46917644", "price": 318000, "livingArea": 1568, "bedrooms": 2, "bathrooms": 2, "longitude": -80.19882, "latitude": 26.79287, "Distance to Trader Joe's (2877 South State Rd 7 Wellington, FL 33414)": "4.64 miles"}{"address": "2604 Dudley Dr E APT I, West Palm Beach, FL 33415", "country": "USA", "listingStatus": "FOR_SALE", "zpid": "46550479", "price": 134900, "livingArea": 895, "bedrooms": 2, "bathrooms": 2, "longitude": -80.12569, "latitude": 26.638807, "Distance to Trader Joe's (2877 South State Rd 7 Wellington, FL 33414)": "4.94 miles"}{"address": "172 Lake Meryl Dr, West Palm Beach, FL 33411", "country": "USA", "listingStatus": "FOR_SALE", "zpid": "46537159", "price": 169999, "livingArea": 841, "bedrooms": 2, "bathrooms": 2, "longitude": -80.16463, "latitude": 26.697176, "Distance to Trader Joe's (2877 South State Rd 7 Wellington, FL 33414)": "4.86 miles"}{"address": "5120 Foxhall Pl, West Palm Beach, FL 33417", "country": "USA", "listingStatus": "FOR_SALE", "zpid": "46919420", "price": 369900, "livingArea": 1434, "bedrooms": 2, "bathrooms": 2, "longitude": -80.12051, "latitude": 26.743343, "Distance to Trader Joe's (2877 South State Rd 7 Wellington, FL 33414)": "4.86 miles"}{"address": "4919 Pimlico Ct, West Palm Beach, FL 33415", "country": "USA", "listingStatus": "FOR_SALE", "zpid": "46547431", "price": 299999, "livingArea": 1216, "bedrooms": 3, "bathrooms": 2, "longitude": -80.11961, "latitude": 26.648813, "Distance to Trader Joe's (2877 South State Rd 7 Wellington, FL 33414)": "4.86 miles"}{"address": "8662 Lineyard Cay, West Palm Beach, FL 33411", "country": "USA", "listingStatus": "FOR_SALE", "zpid": "55006662", "price": 390000, "livingArea": 1550, "bedrooms": 3, "bathrooms": 2, "longitude": -80.18067, "latitude": 26.71017, "Distance to Trader Joe's (2877 South State Rd 7 Wellington, FL 33414)": "4.86 miles"}{"address": "206 Lake Constance Dr, West Palm Beach, FL 33411", "country": "USA", "listingStatus": "FOR_SALE", "zpid": "46537003", "price": 295000, "livingArea": 1003, "bedrooms": 2, "bathrooms": 2, "longitude": -80.15989, "latitude": 26.700493, "Distance to Trader Joe's (2877 South State Rd 7 Wellington, FL 33414)": "4.86 miles"}{"address": "2338 Harbour View Ct, West Palm Beach, FL 33411", "country": "USA", "listingStatus": "FOR_SALE", "zpid": "62859063", "price": 374900, "livingArea": 1259, "bedrooms": 2, "bathrooms": 2, "longitude": -80.19835, "latitude": 26.714094, "Distance to Trader Joe's (2877 South State Rd 7 Wellington, FL 33414)": "4.86 miles"}{"address": "4928 Sable Pine Cir APT C, West Palm Beach, FL 33417", "country": "USA", "listingStatus": "FOR_SALE", "zpid": "46521326", "price": 324500, "livingArea": 1370, "bedrooms": 2, "bathrooms": 2, "longitude": -80.116135, "latitude": 26.726883, "Distance to Trader Joe's (2877 South State Rd 7 Wellington, FL 33414)": "4.86 miles"}{"address": "1087 Summit Trail Cir APT B, West Palm Beach, FL 33415", "country": "USA", "listingStatus": "FOR_SALE", "zpid": "46545770", "price": 396000, "livingArea": 1332, "bedrooms": 3, "bathrooms": 2, "longitude": -80.12454, "latitude": 26.662315, "Distance to Trader Joe's (2877 South State Rd 7 Wellington, FL 33414)": "4.86 miles"}{"address": "4799 Luqui Ct, West Palm Beach, FL 33415", "country": "USA", "listingStatus": "FOR_SALE", "zpid": "46547202", "price": 310000, "livingArea": 1064, "bedrooms": 2, "bathrooms": 2, "longitude": -80.11712, "latitude": 26.655094, "Distance to Trader Joe's (2877 South State Rd 7 Wellington, FL 33414)": "4.86 miles"}{"address": "2683 Barkley Dr E APT A, West Palm Beach, FL 33415", "country": "USA", "listingStatus": "FOR_SALE", "zpid": "46549568", "price": 220000, "livingArea": 895, "bedrooms": 2, "bathrooms": 2, "longitude": -80.12321, "latitude": 26.637903, "Distance to Trader Joe's (2877 South State Rd 7 Wellington, FL 33414)": "4.86 miles"}{"address": "740 47th St, West Palm Beach, FL 33407", "country": "USA", "listingStatus": "FOR_SALE", "zpid": "46922523", "price": 384777, "livingArea": 1318, "bedrooms": 4, "bathrooms": 2, "longitude": -80.05936, "latitude": 26.754318, "Distance to Trader Joe's (2877 South State Rd 7 Wellington, FL 33414)": "4.86 miles"}{"address": "5725 Fernley Dr E APT 36, West Palm Beach, FL 33415", "country": "USA", "listingStatus": "FOR_SALE", "zpid": "46551633", "price": 239900, "livingArea": 1300, "bedrooms": 2, "bathrooms": 2, "longitude": -80.13344, "latitude": 26.636047, "Distance to Trader Joe's (2877 South State Rd 7 Wellington, FL 33414)": "4.46 miles"}{"address": "5730 Fernley Dr E APT 1, West Palm Beach, FL 33415", "country": "USA", "listingStatus": "FOR_SALE", "zpid": "46551746", "price": 220000, "livingArea": 1324, "bedrooms": 2, "bathrooms": 2, "longitude": -80.13351, "latitude": 26.634605, "Distance to Trader Joe's (2877 South State Rd 7 Wellington, FL 33414)": "4.46 miles"}{"address": "109 Lake Nancy Dr, West Palm Beach, FL 33411", "country": "USA", "listingStatus": "FOR_SALE", "zpid": "46537711", "price": 235000, "livingArea": 1189, "bedrooms": 2, "bathrooms": 2, "longitude": -80.1668, "latitude": 26.698914, "Distance to Trader Joe's (2877 South State Rd 7 Wellington, FL 33414)": "4.90 miles"}{"address": "1825 Windsor Ave, West Palm Beach, FL 33407", "country": "USA", "listingStatus": "FOR_SALE", "zpid": "46930471", "price": 335000, "livingArea": 1675, "bedrooms": 4, "bathrooms": 2, "longitude": -80.06364, "latitude": 26.730171, "Distance to Trader Joe's (2560 PGA Blvd Palm Beach Gardens, FL 33410)": "7.91 miles", "Distance to Trader Joe's (2877 South State Rd 7 Wellington, FL 33414)": "10.88 miles"}{"address": "5759 Dewberry Way, West Palm Beach, FL 33415", "country": "USA", "listingStatus": "FOR_SALE", "zpid": "46545059", "price": 389900, "livingArea": 1253, "bedrooms": 3, "bathrooms": 2, "longitude": -80.13378, "latitude": 26.661503, "Distance to Trader Joe's (2560 PGA Blvd Palm Beach Gardens, FL 33410)": "13.14 miles", "Distance to Trader Joe's (2877 South State Rd 7 Wellington, FL 33414)": "4.75 miles", "Distance to Trader Joe's (1851 S Federal Highway #500 Delray Beach, FL 33483)": "15.80 miles"}{"address": "7716 Bougainvillea Ct, West Palm Beach, FL 33412", "country": "USA", "listingStatus": "FOR_SALE", "zpid": "46917715", "price": 294900, "livingArea": 1546, "bedrooms": 2, "bathrooms": 2, "longitude": -80.19885, "latitude": 26.792295, "Distance to Trader Joe's (2560 PGA Blvd Palm Beach Gardens, FL 33410)": "8.52 miles", "Distance to Trader Joe's (2877 South State Rd 7 Wellington, FL 33414)": "10.70 miles", "Distance to Trader Joe's (1851 S Federal Highway #500 Delray Beach, FL 33483)": "15.80 miles"}{"address": "7698 Hummingbird Ct, West Palm Beach, FL 33412", "country": "USA", "listingStatus": "FOR_SALE", "zpid": "46917706", "price": 310000, "livingArea": 1548, "bedrooms": 2, "bathrooms": 2, "longitude": -80.19919, "latitude": 26.79194, "Distance to Trader Joe's (2560 PGA Blvd Palm Beach Gardens, FL 33410)": "8.55 miles", "Distance to Trader Joe's (2877 South State Rd 7 Wellington, FL 33414)": "10.68 miles", "Distance to Trader Joe's (1851 S Federal Highway #500 Delray Beach, FL 33483)": "15.80 miles"}{"address": "1090 17th St, West Palm Beach, FL 33407", "country": "USA", "listingStatus": "FOR_SALE", "zpid": "295525745", "price": 350000, "livingArea": 1491, "bedrooms": 3, "bathrooms": 2, "longitude": -80.062996, "latitude": 26.72874, "Distance to Trader Joe's (2560 PGA Blvd Palm Beach Gardens, FL 33410)": "8.01 miles", "Distance to Trader Joe's (2877 South State Rd 7 Wellington, FL 33414)": "10.85 miles", "Distance to Trader Joe's (1851 S Federal Highway #500 Delray Beach, FL 33483)": "19.94 miles"}{"address": "1141 Summit Place Cir APT B, West Palm Beach, FL 33415", "country": "USA", "listingStatus": "FOR_SALE", "zpid": "46545139", "price": 360000, "livingArea": 1332, "bedrooms": 3, "bathrooms": 2, "longitude": -80.127884, "latitude": 26.65938, "Distance to Trader Joe's (2560 PGA Blvd Palm Beach Gardens, FL 33410)": "13.18 miles", "Distance to Trader Joe's (2877 South State Rd 7 Wellington, FL 33414)": "5.05 miles", "Distance to Trader Joe's (1851 S Federal Highway #500 Delray Beach, FL 33483)": "15.57 miles"}{"address": "9434 Bridgeport Dr, West Palm Beach, FL 33411", "country": "USA", "listingStatus": "FOR_SALE", "zpid": "54151053", "price": 369888, "livingArea": 1368, "bedrooms": 3, "bathrooms": 2, "longitude": -80.19243, "latitude": 26.711374, "Distance to Trader Joe's (2560 PGA Blvd Palm Beach Gardens, FL 33410)": "11.74 miles", "Distance to Trader Joe's (2877 South State Rd 7 Wellington, FL 33414)": "5.19 miles", "Distance to Trader Joe's (1851 S Federal Highway #500 Delray Beach, FL 33483)": "15.57 miles"}{"address": "928 39th St, West Palm Beach, FL 33407", "country": "USA", "listingStatus": "FOR_SALE", "zpid": "46927790", "price": 395000, "livingArea": 1186, "bedrooms": 3, "bathrooms": 2, "longitude": -80.063736, "latitude": 26.748123, "Distance to Trader Joe's (2560 PGA Blvd Palm Beach Gardens, FL 33410)": "6.67 miles", "Distance to Trader Joe's (2877 South State Rd 7 Wellington, FL 33414)": "11.64 miles", "Distance to Trader Joe's (1851 S Federal Highway #500 Delray Beach, FL 33483)": "15.57 miles"}{"address": "179 Lake Susan Ln, West Palm Beach, FL 33411", "country": "USA", "listingStatus": "FOR_SALE", "zpid": "46537642", "price": 285000, "livingArea": 1009, "bedrooms": 2, "bathrooms": 2, "longitude": -80.16824, "latitude": 26.695345, "Distance to Trader Joe's (2560 PGA Blvd Palm Beach Gardens, FL 33410)": "11.81 miles", "Distance to Trader Joe's (2877 South State Rd 7 Wellington, FL 33414)": "4.64 miles", "Distance to Trader Joe's (1851 S Federal Highway #500 Delray Beach, FL 33483)": "18.64 miles"}{"address": "203 Lake Meryl Dr, West Palm Beach, FL 33411", "country": "USA", "listingStatus": "FOR_SALE", "zpid": "46537190", "price": 185000, "livingArea": 841, "bedrooms": 2, "bathrooms": 2, "longitude": -80.16463, "latitude": 26.697176, "Distance to Trader Joe's (2560 PGA Blvd Palm Beach Gardens, FL 33410)": "11.60 miles", "Distance to Trader Joe's (2877 South State Rd 7 Wellington, FL 33414)": "4.86 miles", "Distance to Trader Joe's (1851 S Federal Highway #500 Delray Beach, FL 33483)": "18.69 miles"}{"address": "1022 22nd St, West Palm Beach, FL 33407", "country": "USA", "listingStatus": "FOR_SALE", "zpid": "46930659", "price": 320000, "livingArea": 1166, "bedrooms": 3, "bathrooms": 2, "longitude": -80.06187, "latitude": 26.734037, "Distance to Trader Joe's (2560 PGA Blvd Palm Beach Gardens, FL 33410)": "7.65 miles", "Distance to Trader Joe's (2877 South State Rd 7 Wellington, FL 33414)": "11.12 miles", "Distance to Trader Joe's (1851 S Federal Highway #500 Delray Beach, FL 33483)": "18.69 miles"}{"address": "2640 Gately Dr W APT 304, West Palm Beach, FL 33415", "country": "USA", "listingStatus": "FOR_SALE", "zpid": "46552465", "price": 244999, "livingArea": 1116, "bedrooms": 2, "bathrooms": 2, "longitude": -80.13555, "latitude": 26.63987, "Distance to Trader Joe's (2560 PGA Blvd Palm Beach Gardens, FL 33410)": "14.60 miles", "Distance to Trader Joe's (2877 South State Rd 7 Wellington, FL 33414)": "4.34 miles", "Distance to Trader Joe's (1851 S Federal Highway #500 Delray Beach, FL 33483)": "14.39 miles"}{"address": "5857 Cassandra Ct, West Palm Beach, FL 33415", "country": "USA", "listingStatus": "FOR_SALE", "zpid": "46544881", "price": 399000, "livingArea": 1596, "bedrooms": 4, "bathrooms": 3, "longitude": -80.1356, "latitude": 26.662613, "Distance to Trader Joe's (2560 PGA Blvd Palm Beach Gardens, FL 33410)": "13.10 miles", "Distance to Trader Joe's (2877 South State Rd 7 Wellington, FL 33414)": "4.68 miles", "Distance to Trader Joe's (1851 S Federal Highway #500 Delray Beach, FL 33483)": "15.90 miles"}{"address": "3405 Pinewood Ave, West Palm Beach, FL 33407", "country": "USA", "listingStatus": "FOR_SALE", "zpid": "46927676", "price": 298000, "livingArea": 898, "bedrooms": 3, "bathrooms": 2, "longitude": -80.05901, "latitude": 26.743591, "Distance to Trader Joe's (2560 PGA Blvd Palm Beach Gardens, FL 33410)": "7.02 miles", "Distance to Trader Joe's (2877 South State Rd 7 Wellington, FL 33414)": "11.67 miles", "Distance to Trader Joe's (1851 S Federal Highway #500 Delray Beach, FL 33483)": "15.90 miles"}{"address": "1614 45th St, West Palm Beach, FL 33407", "country": "USA", "listingStatus": "FOR_SALE", "zpid": "46924267", "price": 380000, "livingArea": 1868, "bedrooms": 3, "bathrooms": 2, "longitude": -80.07592, "latitude": 26.752954, "Distance to Trader Joe's (2560 PGA Blvd Palm Beach Gardens, FL 33410)": "6.31 miles", "Distance to Trader Joe's (2877 South State Rd 7 Wellington, FL 33414)": "11.32 miles", "Distance to Trader Joe's (1851 S Federal Highway #500 Delray Beach, FL 33483)": "15.90 miles"}{"address": "7057 Gila Ln, West Palm Beach, FL 33411", "country": "USA", "listingStatus": "FOR_SALE", "zpid": "46921480", "price": 399900, "livingArea": 1680, "bedrooms": 2, "bathrooms": 2, "longitude": -80.1525, "latitude": 26.720057, "Distance to Trader Joe's (2560 PGA Blvd Palm Beach Gardens, FL 33410)": "9.85 miles", "Distance to Trader Joe's (2877 South State Rd 7 Wellington, FL 33414)": "6.60 miles", "Distance to Trader Joe's (1851 S Federal Highway #500 Delray Beach, FL 33483)": "19.99 miles"}{"address": "5954 Bahama Ct, West Palm Beach, FL 33407", "country": "USA", "listingStatus": "FOR_SALE", "zpid": "46519761", "price": 297000, "livingArea": 1225, "bedrooms": 3, "bathrooms": 2, "longitude": -80.11153, "latitude": 26.764647, "Distance to Trader Joe's (2560 PGA Blvd Palm Beach Gardens, FL 33410)": "5.98 miles", "Distance to Trader Joe's (2877 South State Rd 7 Wellington, FL 33414)": "10.54 miles", "Distance to Trader Joe's (1851 S Federal Highway #500 Delray Beach, FL 33483)": "19.99 miles"}{"address": "1654 43rd St, West Palm Beach, FL 33407", "country": "USA", "listingStatus": "FOR_SALE", "zpid": "46924150", "price": 375000, "livingArea": 1352, "bedrooms": 3, "bathrooms": 2, "longitude": -80.07719, "latitude": 26.751423, "Distance to Trader Joe's (2560 PGA Blvd Palm Beach Gardens, FL 33410)": "6.42 miles", "Distance to Trader Joe's (2877 South State Rd 7 Wellington, FL 33414)": "11.19 miles", "Distance to Trader Joe's (1851 S Federal Highway #500 Delray Beach, FL 33483)": "19.99 miles"}{"address": "140 Lake Barbara Dr, West Palm Beach, FL 33411", "country": "USA", "listingStatus": "FOR_SALE", "zpid": "46536562", "price": 195000, "livingArea": 1000, "bedrooms": 2, "bathrooms": 2, "longitude": -80.1656, "latitude": 26.703608, "Distance to Trader Joe's (2560 PGA Blvd Palm Beach Gardens, FL 33410)": "11.24 miles", "Distance to Trader Joe's (2877 South State Rd 7 Wellington, FL 33414)": "5.21 miles", "Distance to Trader Joe's (1851 S Federal Highway #500 Delray Beach, FL 33483)": "19.13 miles"}{"address": "2522 Emory Dr E APT I, West Palm Beach, FL 33415", "country": "USA", "listingStatus": "FOR_SALE", "zpid": "46551112", "price": 155000, "livingArea": 895, "bedrooms": 2, "bathrooms": 2, "longitude": -80.13005, "latitude": 26.640331, "Distance to Trader Joe's (2560 PGA Blvd Palm Beach Gardens, FL 33410)": "14.49 miles", "Distance to Trader Joe's (2877 South State Rd 7 Wellington, FL 33414)": "4.68 miles", "Distance to Trader Joe's (1851 S Federal Highway #500 Delray Beach, FL 33483)": "14.33 miles"}{"address": "2910 Ashley Dr E APT G, West Palm Beach, FL 33415", "country": "USA", "listingStatus": "FOR_SALE", "zpid": "46548392", "price": 149000, "livingArea": 895, "bedrooms": 2, "bathrooms": 2, "longitude": -80.117676, "latitude": 26.634113, "Distance to Trader Joe's (2560 PGA Blvd Palm Beach Gardens, FL 33410)": "14.74 miles", "Distance to Trader Joe's (2877 South State Rd 7 Wellington, FL 33414)": "5.44 miles", "Distance to Trader Joe's (1851 S Federal Highway #500 Delray Beach, FL 33483)": "13.73 miles"}{"address": "5354 Marcia Pl, West Palm Beach, FL 33407", "country": "USA", "listingStatus": "FOR_SALE", "zpid": "46519937", "price": 369000, "livingArea": 1134, "bedrooms": 3, "bathrooms": 2, "longitude": -80.12207, "latitude": 26.761545, "Distance to Trader Joe's (2560 PGA Blvd Palm Beach Gardens, FL 33410)": "6.45 miles", "Distance to Trader Joe's (2877 South State Rd 7 Wellington, FL 33414)": "10.01 miles", "Distance to Trader Joe's (1851 S Federal Highway #500 Delray Beach, FL 33483)": "13.73 miles"}{"address": "443 Golden River Dr, West Palm Beach, FL 33411", "country": "USA", "listingStatus": "FOR_SALE", "zpid": "46537054", "price": 209000, "livingArea": 1191, "bedrooms": 2, "bathrooms": 2, "longitude": -80.15989, "latitude": 26.700493, "Distance to Trader Joe's (2560 PGA Blvd Palm Beach Gardens, FL 33410)": "11.26 miles", "Distance to Trader Joe's (2877 South State Rd 7 Wellington, FL 33414)": "5.21 miles", "Distance to Trader Joe's (1851 S Federal Highway #500 Delray Beach, FL 33483)": "18.82 miles"}{"address": "185 Lake Susan Ln, West Palm Beach, FL 33411", "country": "USA", "listingStatus": "FOR_SALE", "zpid": "46537647", "price": 254900, "livingArea": 1009, "bedrooms": 2, "bathrooms": 2, "longitude": -80.16824, "latitude": 26.695345, "Distance to Trader Joe's (2560 PGA Blvd Palm Beach Gardens, FL 33410)": "11.81 miles", "Distance to Trader Joe's (2877 South State Rd 7 Wellington, FL 33414)": "4.64 miles", "Distance to Trader Joe's (1851 S Federal Highway #500 Delray Beach, FL 33483)": "18.64 miles"}{"address": "7717 Azalea Ct, West Palm Beach, FL 33412", "country": "USA", "listingStatus": "FOR_SALE", "zpid": "46917644", "price": 318000, "livingArea": 1568, "bedrooms": 2, "bathrooms": 2, "longitude": -80.19882, "latitude": 26.79287, "Distance to Trader Joe's (2560 PGA Blvd Palm Beach Gardens, FL 33410)": "8.50 miles", "Distance to Trader Joe's (2877 South State Rd 7 Wellington, FL 33414)": "10.74 miles", "Distance to Trader Joe's (1851 S Federal Highway #500 Delray Beach, FL 33483)": "18.64 miles"}{"address": "2604 Dudley Dr E APT I, West Palm Beach, FL 33415", "country": "USA", "listingStatus": "FOR_SALE", "zpid": "46550479", "price": 134900, "livingArea": 895, "bedrooms": 2, "bathrooms": 2, "longitude": -80.12569, "latitude": 26.638807, "Distance to Trader Joe's (2560 PGA Blvd Palm Beach Gardens, FL 33410)": "14.53 miles", "Distance to Trader Joe's (2877 South State Rd 7 Wellington, FL 33414)": "4.94 miles", "Distance to Trader Joe's (1851 S Federal Highway #500 Delray Beach, FL 33483)": "14.16 miles"}{"address": "172 Lake Meryl Dr, West Palm Beach, FL 33411", "country": "USA", "listingStatus": "FOR_SALE", "zpid": "46537159", "price": 169999, "livingArea": 841, "bedrooms": 2, "bathrooms": 2, "longitude": -80.16463, "latitude": 26.697176, "Distance to Trader Joe's (2560 PGA Blvd Palm Beach Gardens, FL 33410)": "11.60 miles", "Distance to Trader Joe's (2877 South State Rd 7 Wellington, FL 33414)": "4.86 miles", "Distance to Trader Joe's (1851 S Federal Highway #500 Delray Beach, FL 33483)": "18.69 miles"}{"address": "5120 Foxhall Pl, West Palm Beach, FL 33417", "country": "USA", "listingStatus": "FOR_SALE", "zpid": "46919420", "price": 369900, "livingArea": 1434, "bedrooms": 2, "bathrooms": 2, "longitude": -80.12051, "latitude": 26.743343, "Distance to Trader Joe's (2560 PGA Blvd Palm Beach Gardens, FL 33410)": "7.54 miles", "Distance to Trader Joe's (2877 South State Rd 7 Wellington, FL 33414)": "9.02 miles", "Distance to Trader Joe's (1851 S Federal Highway #500 Delray Beach, FL 33483)": "18.69 miles"}{"address": "4919 Pimlico Ct, West Palm Beach, FL 33415", "country": "USA", "listingStatus": "FOR_SALE", "zpid": "46547431", "price": 299999, "livingArea": 1216, "bedrooms": 3, "bathrooms": 2, "longitude": -80.11961, "latitude": 26.648813, "Distance to Trader Joe's (2560 PGA Blvd Palm Beach Gardens, FL 33410)": "13.77 miles", "Distance to Trader Joe's (2877 South State Rd 7 Wellington, FL 33414)": "5.38 miles", "Distance to Trader Joe's (1851 S Federal Highway #500 Delray Beach, FL 33483)": "14.75 miles"}{"address": "8662 Lineyard Cay, West Palm Beach, FL 33411", "country": "USA", "listingStatus": "FOR_SALE", "zpid": "55006662", "price": 390000, "livingArea": 1550, "bedrooms": 3, "bathrooms": 2, "longitude": -80.18067, "latitude": 26.71017, "Distance to Trader Joe's (2560 PGA Blvd Palm Beach Gardens, FL 33410)": "11.37 miles", "Distance to Trader Joe's (2877 South State Rd 7 Wellington, FL 33414)": "5.27 miles", "Distance to Trader Joe's (1851 S Federal Highway #500 Delray Beach, FL 33483)": "19.86 miles"}{"address": "206 Lake Constance Dr, West Palm Beach, FL 33411", "country": "USA", "listingStatus": "FOR_SALE", "zpid": "46537003", "price": 295000, "livingArea": 1003, "bedrooms": 2, "bathrooms": 2, "longitude": -80.15989, "latitude": 26.700493, "Distance to Trader Joe's (2560 PGA Blvd Palm Beach Gardens, FL 33410)": "11.26 miles", "Distance to Trader Joe's (2877 South State Rd 7 Wellington, FL 33414)": "5.21 miles", "Distance to Trader Joe's (1851 S Federal Highway #500 Delray Beach, FL 33483)": "18.82 miles"}{"address": "2338 Harbour View Ct, West Palm Beach, FL 33411", "country": "USA", "listingStatus": "FOR_SALE", "zpid": "62859063", "price": 374900, "livingArea": 1259, "bedrooms": 2, "bathrooms": 2, "longitude": -80.19835, "latitude": 26.714094, "Distance to Trader Joe's (2560 PGA Blvd Palm Beach Gardens, FL 33410)": "11.83 miles", "Distance to Trader Joe's (2877 South State Rd 7 Wellington, FL 33414)": "5.33 miles", "Distance to Trader Joe's (1851 S Federal Highway #500 Delray Beach, FL 33483)": "18.82 miles"}{"address": "4928 Sable Pine Cir APT C, West Palm Beach, FL 33417", "country": "USA", "listingStatus": "FOR_SALE", "zpid": "46521326", "price": 324500, "livingArea": 1370, "bedrooms": 2, "bathrooms": 2, "longitude": -80.116135, "latitude": 26.726883, "Distance to Trader Joe's (2560 PGA Blvd Palm Beach Gardens, FL 33410)": "8.52 miles", "Distance to Trader Joe's (2877 South State Rd 7 Wellington, FL 33414)": "8.30 miles", "Distance to Trader Joe's (1851 S Federal Highway #500 Delray Beach, FL 33483)": "18.82 miles"}{"address": "1087 Summit Trail Cir APT B, West Palm Beach, FL 33415", "country": "USA", "listingStatus": "FOR_SALE", "zpid": "46545770", "price": 396000, "livingArea": 1332, "bedrooms": 3, "bathrooms": 2, "longitude": -80.12454, "latitude": 26.662315, "Distance to Trader Joe's (2560 PGA Blvd Palm Beach Gardens, FL 33410)": "12.94 miles", "Distance to Trader Joe's (2877 South State Rd 7 Wellington, FL 33414)": "5.31 miles", "Distance to Trader Joe's (1851 S Federal Highway #500 Delray Beach, FL 33483)": "15.72 miles"}{"address": "4799 Luqui Ct, West Palm Beach, FL 33415", "country": "USA", "listingStatus": "FOR_SALE", "zpid": "46547202", "price": 310000, "livingArea": 1064, "bedrooms": 2, "bathrooms": 2, "longitude": -80.11712, "latitude": 26.655094, "Distance to Trader Joe's (2560 PGA Blvd Palm Beach Gardens, FL 33410)": "13.32 miles", "Distance to Trader Joe's (2877 South State Rd 7 Wellington, FL 33414)": "5.61 miles", "Distance to Trader Joe's (1851 S Federal Highway #500 Delray Beach, FL 33483)": "15.14 miles"}{"address": "2683 Barkley Dr E APT A, West Palm Beach, FL 33415", "country": "USA", "listingStatus": "FOR_SALE", "zpid": "46549568", "price": 220000, "livingArea": 895, "bedrooms": 2, "bathrooms": 2, "longitude": -80.12321, "latitude": 26.637903, "Distance to Trader Joe's (2560 PGA Blvd Palm Beach Gardens, FL 33410)": "14.55 miles", "Distance to Trader Joe's (2877 South State Rd 7 Wellington, FL 33414)": "5.10 miles", "Distance to Trader Joe's (1851 S Federal Highway #500 Delray Beach, FL 33483)": "14.06 miles"}{"address": "740 47th St, West Palm Beach, FL 33407", "country": "USA", "listingStatus": "FOR_SALE", "zpid": "46922523", "price": 384777, "livingArea": 1318, "bedrooms": 4, "bathrooms": 2, "longitude": -80.05936, "latitude": 26.754318, "Distance to Trader Joe's (2560 PGA Blvd Palm Beach Gardens, FL 33410)": "6.28 miles", "Distance to Trader Joe's (2877 South State Rd 7 Wellington, FL 33414)": "12.13 miles", "Distance to Trader Joe's (1851 S Federal Highway #500 Delray Beach, FL 33483)": "14.06 miles"}{"address": "5725 Fernley Dr E APT 36, West Palm Beach, FL 33415", "country": "USA", "listingStatus": "FOR_SALE", "zpid": "46551633", "price": 239900, "livingArea": 1300, "bedrooms": 2, "bathrooms": 2, "longitude": -80.13344, "latitude": 26.636047, "Distance to Trader Joe's (2560 PGA Blvd Palm Beach Gardens, FL 33410)": "14.82 miles", "Distance to Trader Joe's (2877 South State Rd 7 Wellington, FL 33414)": "4.46 miles", "Distance to Trader Joe's (1851 S Federal Highway #500 Delray Beach, FL 33483)": "14.10 miles"}{"address": "5730 Fernley Dr E APT 1, West Palm Beach, FL 33415", "country": "USA", "listingStatus": "FOR_SALE", "zpid": "46551746", "price": 220000, "livingArea": 1324, "bedrooms": 2, "bathrooms": 2, "longitude": -80.13351, "latitude": 26.634605, "Distance to Trader Joe's (2560 PGA Blvd Palm Beach Gardens, FL 33410)": "14.92 miles", "Distance to Trader Joe's (2877 South State Rd 7 Wellington, FL 33414)": "4.46 miles", "Distance to Trader Joe's (1851 S Federal Highway #500 Delray Beach, FL 33483)": "14.01 miles"}{"address": "109 Lake Nancy Dr, West Palm Beach, FL 33411", "country": "USA", "listingStatus": "FOR_SALE", "zpid": "46537711", "price": 235000, "livingArea": 1189, "bedrooms": 2, "bathrooms": 2, "longitude": -80.1668, "latitude": 26.698914, "Distance to Trader Joe's (2560 PGA Blvd Palm Beach Gardens, FL 33410)": "11.56 miles", "Distance to Trader Joe's (2877 South State Rd 7 Wellington, FL 33414)": "4.90 miles", "Distance to Trader Joe's (1851 S Federal Highway #500 Delray Beach, FL 33483)": "18.85 miles"}